{
  "$schema": "https://vega.github.io/schema/vega-lite/v5.json",
  "width": 800,
  "height": 520,
  "background": "#eaf6ff",
  "config": {"view": {"stroke": null}},
  "projection": {"type": "equalEarth", "center": [133, -28], "scale": 850},
  "layer": [
    {
      "data": {"graticule": true},
      "mark": {
        "type": "geoshape",
        "stroke": "#c4d7e6",
        "strokeWidth": 0.5,
        "filled": false
      }
    },
    {
      "data": {
        "url": "https://cdn.jsdelivr.net/npm/vega-datasets@2.12.1/data/world-110m.json",
        "format": {"type": "topojson", "feature": "countries"}
      },
      "mark": {
        "type": "geoshape",
        "fill": "#f9fbff",
        "stroke": "#b7c5d6",
        "strokeWidth": 0.6
      }
    },
    {
      "data": {
        "values": [
          {
            "city": "Sydney",
            "state": "NSW",
            "lat": -33.8688,
            "lon": 151.2093,
            "pop_millions": 5.3
          },
          {
            "city": "Melbourne",
            "state": "VIC",
            "lat": -37.8136,
            "lon": 144.9631,
            "pop_millions": 5.2
          },
          {
            "city": "Brisbane",
            "state": "QLD",
            "lat": -27.4698,
            "lon": 153.0251,
            "pop_millions": 2.7
          },
          {
            "city": "Perth",
            "state": "WA",
            "lat": -31.9523,
            "lon": 115.8613,
            "pop_millions": 2.2
          },
          {
            "city": "Adelaide",
            "state": "SA",
            "lat": -34.9285,
            "lon": 138.6007,
            "pop_millions": 1.4
          },
          {
            "city": "Canberra",
            "state": "ACT",
            "lat": -35.2809,
            "lon": 149.13,
            "pop_millions": 0.47
          },
          {
            "city": "Hobart",
            "state": "TAS",
            "lat": -42.8821,
            "lon": 147.3272,
            "pop_millions": 0.24
          },
          {
            "city": "Darwin",
            "state": "NT",
            "lat": -12.4634,
            "lon": 130.8456,
            "pop_millions": 0.15
          }
        ]
      },
      "mark": {"type": "circle", "tooltip": true, "opacity": 0.9},
      "encoding": {
        "longitude": {"field": "lon", "type": "quantitative"},
        "latitude": {"field": "lat", "type": "quantitative"},
        "size": {
          "field": "pop_millions",
          "type": "quantitative",
          "title": "Population (millions)",
          "scale": {"range": [50, 2200]}
        },
        "color": {
          "field": "pop_millions",
          "type": "quantitative",
          "title": "Population (millions)"
        },
        "tooltip": [
          {"field": "city", "title": "City"},
          {"field": "state", "title": "State/Territory"},
          {"field": "pop_millions", "title": "Population (M)", "format": ".2f"}
        ]
      }
    },
    {
      "data": {
        "values": [
          {
            "city": "Sydney",
            "state": "NSW",
            "lat": -33.8688,
            "lon": 151.2093,
            "pop_millions": 5.3
          },
          {
            "city": "Melbourne",
            "state": "VIC",
            "lat": -37.8136,
            "lon": 144.9631,
            "pop_millions": 5.2
          },
          {
            "city": "Brisbane",
            "state": "QLD",
            "lat": -27.4698,
            "lon": 153.0251,
            "pop_millions": 2.7
          },
          {
            "city": "Perth",
            "state": "WA",
            "lat": -31.9523,
            "lon": 115.8613,
            "pop_millions": 2.2
          },
          {
            "city": "Adelaide",
            "state": "SA",
            "lat": -34.9285,
            "lon": 138.6007,
            "pop_millions": 1.4
          },
          {
            "city": "Canberra",
            "state": "ACT",
            "lat": -35.2809,
            "lon": 149.13,
            "pop_millions": 0.47
          },
          {
            "city": "Hobart",
            "state": "TAS",
            "lat": -42.8821,
            "lon": 147.3272,
            "pop_millions": 0.24
          },
          {
            "city": "Darwin",
            "state": "NT",
            "lat": -12.4634,
            "lon": 130.8456,
            "pop_millions": 0.15
          }
        ]
      },
      "mark": {"type": "text", "dy": -10, "fontSize": 11},
      "encoding": {
        "longitude": {"field": "lon", "type": "quantitative"},
        "latitude": {"field": "lat", "type": "quantitative"},
        "text": {"field": "city"},
        "color": {"value": "#1f2937"}
      }
    }
  ],
  "title": {
    "text": "Australian Capital Cities by Estimated Population (Demo Data)",
    "anchor": "start",
    "fontSize": 16
  }
}